<?xml version="1.0" encoding="UTF-8"?>
<kml xmlns="http://www.opengis.net/kml/2.2">
  <Document>
    <name>500 wonders of nature in Poland</name>
    <Style id="icon-1899-FF5252-nodesc-normal">
      <IconStyle>
        <color>ff5252ff</color>
        <scale>1</scale>
        <Icon>
          <href>https://www.gstatic.com/mapspro/images/stock/503-wht-blank_maps.png</href>
        </Icon>
        <hotSpot x="32" xunits="pixels" y="64" yunits="insetPixels"/>
      </IconStyle>
      <LabelStyle>
        <scale>0</scale>
      </LabelStyle>
      <BalloonStyle>
        <text><![CDATA[<h3>$[name]</h3>]]></text>
      </BalloonStyle>
    </Style>
    <Style id="icon-1899-FF5252-nodesc-highlight">
      <IconStyle>
        <color>ff5252ff</color>
        <scale>1</scale>
        <Icon>
          <href>https://www.gstatic.com/mapspro/images/stock/503-wht-blank_maps.png</href>
        </Icon>
        <hotSpot x="32" xunits="pixels" y="64" yunits="insetPixels"/>
      </IconStyle>
      <LabelStyle>
        <scale>1</scale>
      </LabelStyle>
      <BalloonStyle>
        <text><![CDATA[<h3>$[name]</h3>]]></text>
      </BalloonStyle>
    </Style>
    <StyleMap id="icon-1899-FF5252-nodesc">
      <Pair>
        <key>normal</key>
        <styleUrl>#icon-1899-FF5252-nodesc-normal</styleUrl>
      </Pair>
      <Pair>
        <key>highlight</key>
        <styleUrl>#icon-1899-FF5252-nodesc-highlight</styleUrl>
      </Pair>
    </StyleMap>
    <Placemark>
      <name>Arłamów</name>
      <styleUrl>#icon-1899-FF5252-nodesc</styleUrl>
      <Point>
        <coordinates>
          22.6306904,49.5912305,0
        </coordinates>
      </Point>
    </Placemark>
    <Placemark>
      <name>Babia Góra</name>
      <styleUrl>#icon-1899-FF5252-nodesc</styleUrl>
      <Point>
        <coordinates>
          19.5307964,49.5731628,0
        </coordinates>
      </Point>
    </Placemark>
    <Placemark>
      <name>Barania Góra</name>
      <styleUrl>#icon-1899-FF5252-nodesc</styleUrl>
      <Point>
        <coordinates>
          19.0104728,49.6114424,0
        </coordinates>
      </Point>
    </Placemark>
    <Placemark>
      <name>Barcza Nature Reserve</name>
      <styleUrl>#icon-1899-FF5252-nodesc</styleUrl>
      <Point>
        <coordinates>
          20.7206301,50.9594408,0
        </coordinates>
      </Point>
    </Placemark>
    <Placemark>
      <name>Dąb Bartek</name>
      <styleUrl>#icon-1899-FF5252-nodesc</styleUrl>
      <Point>
        <coordinates>
          20.6500844,50.9874838,0
        </coordinates>
      </Point>
    </Placemark>
    <Placemark>
      <name>Beniowa</name>
      <styleUrl>#icon-1899-FF5252-nodesc</styleUrl>
      <Point>
        <coordinates>
          22.8570249,49.0626526,0
        </coordinates>
      </Point>
    </Placemark>
    <Placemark>
      <name>Biała Woda</name>
      <styleUrl>#icon-1899-FF5252-nodesc</styleUrl>
      <Point>
        <coordinates>
          20.5521263,49.4103469,0
        </coordinates>
      </Point>
    </Placemark>
    <Placemark>
      <name>Jezioro Białe</name>
      <styleUrl>#icon-1899-FF5252-nodesc</styleUrl>
      <Point>
        <coordinates>
          23.5379158,51.4979389,0
        </coordinates>
      </Point>
    </Placemark>
    <Placemark>
      <name>Grąd</name>
      <styleUrl>#icon-1899-FF5252-nodesc</styleUrl>
      <Point>
        <coordinates>
          22.463582,53.3849553,0
        </coordinates>
      </Point>
    </Placemark>
    <Placemark>
      <name>Bieliczna</name>
      <styleUrl>#icon-1899-FF5252-nodesc</styleUrl>
      <Point>
        <coordinates>
          21.1,49.45,0
        </coordinates>
      </Point>
    </Placemark>
    <Placemark>
      <name>Rezerwat przyrody Bielinek</name>
      <styleUrl>#icon-1899-FF5252-nodesc</styleUrl>
      <Point>
        <coordinates>
          14.1781998,52.9239884,0
        </coordinates>
      </Point>
    </Placemark>
    <Placemark>
      <name>Puszcza Bieniszewska</name>
      <styleUrl>#icon-1899-FF5252-nodesc</styleUrl>
      <Point>
        <coordinates>
          18.1624399,52.2837096,0
        </coordinates>
      </Point>
    </Placemark>
    <Placemark>
      <name>Błędne Skały</name>
      <styleUrl>#icon-1899-FF5252-nodesc</styleUrl>
      <Point>
        <coordinates>
          16.2872162,50.4802896,0
        </coordinates>
      </Point>
    </Placemark>
    <Placemark>
      <name>Błędów Desert</name>
      <styleUrl>#icon-1899-FF5252-nodesc</styleUrl>
      <Point>
        <coordinates>
          19.5240391,50.3406813,0
        </coordinates>
      </Point>
    </Placemark>
    <Placemark>
      <name>Rezerwat przyrody Diabelskie Pustacie</name>
      <styleUrl>#icon-1899-FF5252-nodesc</styleUrl>
      <Point>
        <coordinates>
          16.571512,53.5275346,0
        </coordinates>
      </Point>
    </Placemark>
    <Placemark>
      <name>Brama Twardowskiego</name>
      <styleUrl>#icon-1899-FF5252-nodesc</styleUrl>
      <Point>
        <coordinates>
          19.4044406,50.6890152,0
        </coordinates>
      </Point>
    </Placemark>
    <Placemark>
      <name>Brzostowo</name>
      <styleUrl>#icon-1899-FF5252-nodesc</styleUrl>
      <Point>
        <coordinates>
          22.4551103,53.3170717,0
        </coordinates>
      </Point>
    </Placemark>
    <Placemark>
      <name>Rezerwat przyrody Buczyna Łagowska</name>
      <styleUrl>#icon-1899-FF5252-nodesc</styleUrl>
      <Point>
        <coordinates>
          15.3102207,52.3715643,0
        </coordinates>
      </Point>
    </Placemark>
    <Placemark>
      <name>Wieża widokowa Tartaczna Góra</name>
      <styleUrl>#icon-1899-FF5252-nodesc</styleUrl>
      <Point>
        <coordinates>
          22.988738,50.6144018,0
        </coordinates>
      </Point>
    </Placemark>
    <Placemark>
      <name>Bukowe Berdo (Szołtynia)</name>
      <styleUrl>#icon-1899-FF5252-nodesc</styleUrl>
      <Point>
        <coordinates>
          22.7218252,49.1092032,0
        </coordinates>
      </Point>
    </Placemark>
    <Placemark>
      <name><![CDATA["Mikołajewo" Wiktor Wołków observation tower]]></name>
      <styleUrl>#icon-1899-FF5252-nodesc</styleUrl>
      <Point>
        <coordinates>
          22.4570669,53.2753988,0
        </coordinates>
      </Point>
    </Placemark>
    <Placemark>
      <name>Rezerwat Butorza</name>
      <styleUrl>#icon-1899-FF5252-nodesc</styleUrl>
      <Point>
        <coordinates>
          19.0151562,49.5199859,0
        </coordinates>
      </Point>
    </Placemark>
    <Placemark>
      <name>Bagno Całowanie</name>
      <styleUrl>#icon-1899-FF5252-nodesc</styleUrl>
      <Point>
        <coordinates>
          21.3533366,52.0093648,0
        </coordinates>
      </Point>
    </Placemark>
    <Placemark>
      <name>Połonina Caryńska</name>
      <styleUrl>#icon-1899-FF5252-nodesc</styleUrl>
      <Point>
        <coordinates>
          22.607974,49.135275,0
        </coordinates>
      </Point>
    </Placemark>
    <Placemark>
      <name>Góra Chełm</name>
      <styleUrl>#icon-1899-FF5252-nodesc</styleUrl>
      <Point>
        <coordinates>
          19.9496313,49.7993646,0
        </coordinates>
      </Point>
    </Placemark>
    <Placemark>
      <name>Polana Chochołowska</name>
      <styleUrl>#icon-1899-FF5252-nodesc</styleUrl>
      <Point>
        <coordinates>
          19.7946596,49.2377759,0
        </coordinates>
      </Point>
    </Placemark>
    <Placemark>
      <name>Chrobry Oak</name>
      <styleUrl>#icon-1899-FF5252-nodesc</styleUrl>
      <Point>
        <coordinates>
          15.7116437,51.5215145,0
        </coordinates>
      </Point>
    </Placemark>
    <Placemark>
      <name>Ciechania</name>
      <styleUrl>#icon-1899-FF5252-nodesc</styleUrl>
      <Point>
        <coordinates>
          21.51,49.45,0
        </coordinates>
      </Point>
    </Placemark>
    <Placemark>
      <name>Rezerwat przyrody Ciechostowice</name>
      <styleUrl>#icon-1899-FF5252-nodesc</styleUrl>
      <Point>
        <coordinates>
          20.7342314,51.1540909,0
        </coordinates>
      </Point>
    </Placemark>
    <Placemark>
      <name>Cis Henrykowski</name>
      <styleUrl>#icon-1899-FF5252-nodesc</styleUrl>
      <Point>
        <coordinates>
          15.2184141,51.171372,0
        </coordinates>
      </Point>
    </Placemark>
    <Placemark>
      <name>Rezerwat Leśny Cisy Staropolskie Imienia Leona Wyczółkowskiego</name>
      <styleUrl>#icon-1899-FF5252-nodesc</styleUrl>
      <Point>
        <coordinates>
          18.1183883,53.5164313,0
        </coordinates>
      </Point>
    </Placemark>
    <Placemark>
      <name>Czartowe Pole</name>
      <styleUrl>#icon-1899-FF5252-nodesc</styleUrl>
      <Point>
        <coordinates>
          23.1080246,50.4410396,0
        </coordinates>
      </Point>
    </Placemark>
    <Placemark>
      <name>Czerwone Bagno</name>
      <styleUrl>#icon-1899-FF5252-nodesc</styleUrl>
      <Point>
        <coordinates>
          22.8678017,54.1889202,0
        </coordinates>
      </Point>
    </Placemark>
    <Placemark>
      <name>Červené vrchy</name>
      <styleUrl>#icon-1899-FF5252-nodesc</styleUrl>
      <Point>
        <coordinates>
          19.9166667,49.2333333,0
        </coordinates>
      </Point>
    </Placemark>
    <Placemark>
      <name>Rezerwat Czeszewski Las</name>
      <styleUrl>#icon-1899-FF5252-nodesc</styleUrl>
      <Point>
        <coordinates>
          17.5202751,52.1328558,0
        </coordinates>
      </Point>
    </Placemark>
    <Placemark>
      <name>Rezerwat Przyrody Dąbrowa Łącka</name>
      <styleUrl>#icon-1899-FF5252-nodesc</styleUrl>
      <Point>
        <coordinates>
          19.6293916,52.4607376,0
        </coordinates>
      </Point>
    </Placemark>
    <Placemark>
      <name>Rezerwat przyrody Debry</name>
      <styleUrl>#icon-1899-FF5252-nodesc</styleUrl>
      <Point>
        <coordinates>
          23.1302601,50.5561453,0
        </coordinates>
      </Point>
    </Placemark>
    <Placemark>
      <name>Dębina</name>
      <styleUrl>#icon-1899-FF5252-nodesc</styleUrl>
      <Point>
        <coordinates>
          21.3756904,52.401707,0
        </coordinates>
      </Point>
    </Placemark>
    <Placemark>
      <name>Rezerwat przyrody Dębowiec</name>
      <styleUrl>#icon-1899-FF5252-nodesc</styleUrl>
      <Point>
        <coordinates>
          19.7282039,50.9148286,0
        </coordinates>
      </Point>
    </Placemark>
    <Placemark>
      <name>Rezerwat przyrody Dębowy Grąd</name>
      <styleUrl>#icon-1899-FF5252-nodesc</styleUrl>
      <Point>
        <coordinates>
          23.6912139,52.7395211,0
        </coordinates>
      </Point>
    </Placemark>
    <Placemark>
      <name>Hala Długa pod Turbaczem</name>
      <styleUrl>#icon-1899-FF5252-nodesc</styleUrl>
      <Point>
        <coordinates>
          20.1315764,49.5455188,0
        </coordinates>
      </Point>
    </Placemark>
    <Placemark>
      <name>Ścieżka „Długa Luka”</name>
      <styleUrl>#icon-1899-FF5252-nodesc</styleUrl>
      <Point>
        <coordinates>
          22.60821,53.2864491,0
        </coordinates>
      </Point>
    </Placemark>
    <Placemark>
      <name>Długie Młaki</name>
      <styleUrl>#icon-1899-FF5252-nodesc</styleUrl>
      <Point>
        <coordinates>
          20.1103774,49.5385837,0
        </coordinates>
      </Point>
    </Placemark>
    <Placemark>
      <name>Rezerwat Przyrody Dolina Ilanki</name>
      <styleUrl>#icon-1899-FF5252-nodesc</styleUrl>
      <Point>
        <coordinates>
          15.0216638,52.3570282,0
        </coordinates>
      </Point>
    </Placemark>
    <Placemark>
      <name>Dolina Pięciu Jezior</name>
      <styleUrl>#icon-1899-FF5252-nodesc</styleUrl>
      <Point>
        <coordinates>
          16.1532497,53.703871,0
        </coordinates>
      </Point>
    </Placemark>
    <Placemark>
      <name>Punkt widokowy „Binduga”</name>
      <styleUrl>#icon-1899-FF5252-nodesc</styleUrl>
      <Point>
        <coordinates>
          17.9501,53.6254298,0
        </coordinates>
      </Point>
    </Placemark>
    <Placemark>
      <name>Most nad Drawą</name>
      <styleUrl>#icon-1899-FF5252-nodesc</styleUrl>
      <Point>
        <coordinates>
          15.9127709,53.0827336,0
        </coordinates>
      </Point>
    </Placemark>
    <Placemark>
      <name>Jezioro Drawsko</name>
      <styleUrl>#icon-1899-FF5252-nodesc</styleUrl>
      <Point>
        <coordinates>
          16.1827778,53.5944444,0
        </coordinates>
      </Point>
    </Placemark>
    <Placemark>
      <name>Prielom Dunajca</name>
      <styleUrl>#icon-1899-FF5252-nodesc</styleUrl>
      <Point>
        <coordinates>
          20.4367285,49.416908,0
        </coordinates>
      </Point>
    </Placemark>
    <Placemark>
      <name><![CDATA[Wieża widokowa "Durne Bagno"]]></name>
      <styleUrl>#icon-1899-FF5252-nodesc</styleUrl>
      <Point>
        <coordinates>
          23.2291086,51.4525361,0
        </coordinates>
      </Point>
    </Placemark>
    <Placemark>
      <name>Jeziorka Duszatyńskie</name>
      <styleUrl>#icon-1899-FF5252-nodesc</styleUrl>
      <Point>
        <coordinates>
          22.1674199,49.3137044,0
        </coordinates>
      </Point>
    </Placemark>
    <Placemark>
      <name>Dwernik Kamień</name>
      <styleUrl>#icon-1899-FF5252-nodesc</styleUrl>
      <Point>
        <coordinates>
          22.5833333,49.1902777,0
        </coordinates>
      </Point>
    </Placemark>
    <Placemark>
      <name>Małe Gacno</name>
      <styleUrl>#icon-1899-FF5252-nodesc</styleUrl>
      <Point>
        <coordinates>
          17.550353,53.78519,0
        </coordinates>
      </Point>
    </Placemark>
    <Placemark>
      <name>Gagaty Sołtykowskie</name>
      <styleUrl>#icon-1899-FF5252-nodesc</styleUrl>
      <Point>
        <coordinates>
          20.6623927,51.1465882,0
        </coordinates>
      </Point>
    </Placemark>
    <Placemark>
      <name>Dolina Gąsienicowa</name>
      <styleUrl>#icon-1899-FF5252-nodesc</styleUrl>
      <Point>
        <coordinates>
          20.0063853,49.2454853,0
        </coordinates>
      </Point>
    </Placemark>
    <Placemark>
      <name>Plaża Gąski</name>
      <styleUrl>#icon-1899-FF5252-nodesc</styleUrl>
      <Point>
        <coordinates>
          15.9092597,54.2461712,0
        </coordinates>
      </Point>
    </Placemark>
    <Placemark>
      <name>Rezerwat przyrody Głazowisko Bachanowo</name>
      <styleUrl>#icon-1899-FF5252-nodesc</styleUrl>
      <Point>
        <coordinates>
          22.7913962,54.2359167,0
        </coordinates>
      </Point>
    </Placemark>
    <Placemark>
      <name>Jezioro Głęboczko</name>
      <styleUrl>#icon-1899-FF5252-nodesc</styleUrl>
      <Point>
        <coordinates>
          17.5551691,54.1904874,0
        </coordinates>
      </Point>
    </Placemark>
    <Placemark>
      <name>Rezerwat przyrody Głęboka Dolina</name>
      <styleUrl>#icon-1899-FF5252-nodesc</styleUrl>
      <Point>
        <coordinates>
          23.4464483,50.9104497,0
        </coordinates>
      </Point>
    </Placemark>
    <Placemark>
      <name>Gołoborze na Łysej Górze</name>
      <styleUrl>#icon-1899-FF5252-nodesc</styleUrl>
      <Point>
        <coordinates>
          21.0473546,50.8615089,0
        </coordinates>
      </Point>
    </Placemark>
    <Placemark>
      <name>Gopło</name>
      <styleUrl>#icon-1899-FF5252-nodesc</styleUrl>
      <Point>
        <coordinates>
          18.3803177,52.5185572,0
        </coordinates>
      </Point>
    </Placemark>
    <Placemark>
      <name>Gorczański Park Narodowy</name>
      <styleUrl>#icon-1899-FF5252-nodesc</styleUrl>
      <Point>
        <coordinates>
          20.1509328,49.5503544,0
        </coordinates>
      </Point>
    </Placemark>
    <Placemark>
      <name>Jezioro Gościąż</name>
      <styleUrl>#icon-1899-FF5252-nodesc</styleUrl>
      <Point>
        <coordinates>
          19.3408971,52.5828574,0
        </coordinates>
      </Point>
    </Placemark>
    <Placemark>
      <name>Holy Mountain National Geopark. anny</name>
      <styleUrl>#icon-1899-FF5252-nodesc</styleUrl>
      <Point>
        <coordinates>
          18.1674707,50.4527019,0
        </coordinates>
      </Point>
    </Placemark>
    <Placemark>
      <name>Jezioro Góreckie</name>
      <styleUrl>#icon-1899-FF5252-nodesc</styleUrl>
      <Point>
        <coordinates>
          16.7823577,52.2675018,0
        </coordinates>
      </Point>
    </Placemark>
    <Placemark>
      <name>Dolina Dolnej Narwi</name>
      <styleUrl>#icon-1899-FF5252-nodesc</styleUrl>
      <Point>
        <coordinates>
          21.4090797,52.9064735,0
        </coordinates>
      </Point>
    </Placemark>
    <Placemark>
      <name>Rezerwat przyrody Góry Pieprzowe</name>
      <styleUrl>#icon-1899-FF5252-nodesc</styleUrl>
      <Point>
        <coordinates>
          21.7861273,50.6851319,0
        </coordinates>
      </Point>
    </Placemark>
    <Placemark>
      <name>Nadleśnictwo Czerniejewo</name>
      <styleUrl>#icon-1899-FF5252-nodesc</styleUrl>
      <Point>
        <coordinates>
          17.4539066,52.4385893,0
        </coordinates>
      </Point>
    </Placemark>
    <Placemark>
      <name>Gryżyński Park Krajobrazowy</name>
      <styleUrl>#icon-1899-FF5252-nodesc</styleUrl>
      <Point>
        <coordinates>
          15.2809853,52.1702826,0
        </coordinates>
      </Point>
    </Placemark>
    <Placemark>
      <name>Rezerwat przyrody Dolina Gwdy</name>
      <styleUrl>#icon-1899-FF5252-nodesc</styleUrl>
      <Point>
        <coordinates>
          16.9260263,53.596389,0
        </coordinates>
      </Point>
    </Placemark>
    <Placemark>
      <name>Helskie Dunes Nature Reserve</name>
      <styleUrl>#icon-1899-FF5252-nodesc</styleUrl>
      <Point>
        <coordinates>
          18.7713855,54.6570276,0
        </coordinates>
      </Point>
    </Placemark>
    <Placemark>
      <name>Rezerwat przyrody Imielty Ług</name>
      <styleUrl>#icon-1899-FF5252-nodesc</styleUrl>
      <Point>
        <coordinates>
          22.2360009,50.6675953,0
        </coordinates>
      </Point>
    </Placemark>
    <Placemark>
      <name>Czarny Kocioł Jagniątkowski</name>
      <styleUrl>#icon-1899-FF5252-nodesc</styleUrl>
      <Point>
        <coordinates>
          15.5872181,50.7861997,0
        </coordinates>
      </Point>
    </Placemark>
    <Placemark>
      <name><![CDATA[Dąb "Jan" - Pomnik Przyrody]]></name>
      <styleUrl>#icon-1899-FF5252-nodesc</styleUrl>
      <Point>
        <coordinates>
          17.9324016,51.8539481,0
        </coordinates>
      </Point>
    </Placemark>
    <Placemark>
      <name>Jar Rzeki Raduni</name>
      <styleUrl>#icon-1899-FF5252-nodesc</styleUrl>
      <Point>
        <coordinates>
          18.304886,54.3027687,0
        </coordinates>
      </Point>
    </Placemark>
    <Placemark>
      <name>Jasiel</name>
      <styleUrl>#icon-1899-FF5252-nodesc</styleUrl>
      <Point>
        <coordinates>
          21.9110049,49.3670789,0
        </coordinates>
      </Point>
    </Placemark>
    <Placemark>
      <name>Rezerwat przyrody Jaskinia Niedźwiedzia</name>
      <styleUrl>#icon-1899-FF5252-nodesc</styleUrl>
      <Point>
        <coordinates>
          16.8446047,50.2343243,0
        </coordinates>
      </Point>
    </Placemark>
    <Placemark>
      <name>Małe Jasło 1103 m n.p.m.</name>
      <styleUrl>#icon-1899-FF5252-nodesc</styleUrl>
      <Point>
        <coordinates>
          22.350703,49.174038,0
        </coordinates>
      </Point>
    </Placemark>
    <Placemark>
      <name>Dolina Jaworzynki</name>
      <styleUrl>#icon-1899-FF5252-nodesc</styleUrl>
      <Point>
        <coordinates>
          19.9845473,49.2631571,0
        </coordinates>
      </Point>
    </Placemark>
    <Placemark>
      <name>Rezerwat przyrody Jelonka</name>
      <styleUrl>#icon-1899-FF5252-nodesc</styleUrl>
      <Point>
        <coordinates>
          23.3691821,52.5946353,0
        </coordinates>
      </Point>
    </Placemark>
    <Placemark>
      <name>Jeziorak</name>
      <styleUrl>#icon-1899-FF5252-nodesc</styleUrl>
      <Point>
        <coordinates>
          19.6065019,53.7222024,0
        </coordinates>
      </Point>
    </Placemark>
    <Placemark>
      <name>Rezerwat przyrody Jeziorka Kozie</name>
      <styleUrl>#icon-1899-FF5252-nodesc</styleUrl>
      <Point>
        <coordinates>
          17.8932614,53.6883193,0
        </coordinates>
      </Point>
    </Placemark>
    <Placemark>
      <name>Jezioro Czarnówek</name>
      <styleUrl>#icon-1899-FF5252-nodesc</styleUrl>
      <Point>
        <coordinates>
          16.0163927,53.5708232,0
        </coordinates>
      </Point>
    </Placemark>
    <Placemark>
      <name>Doba Lake</name>
      <styleUrl>#icon-1899-FF5252-nodesc</styleUrl>
      <Point>
        <coordinates>
          21.6369355,54.0995993,0
        </coordinates>
      </Point>
    </Placemark>
    <Placemark>
      <name>Drużno</name>
      <styleUrl>#icon-1899-FF5252-nodesc</styleUrl>
      <Point>
        <coordinates>
          19.4694762,54.1014658,0
        </coordinates>
      </Point>
    </Placemark>
    <Placemark>
      <name>Hańcza</name>
      <styleUrl>#icon-1899-FF5252-nodesc</styleUrl>
      <Point>
        <coordinates>
          22.8146416,54.2702319,0
        </coordinates>
      </Point>
    </Placemark>
    <Placemark>
      <name>Jezioro Kośno</name>
      <styleUrl>#icon-1899-FF5252-nodesc</styleUrl>
      <Point>
        <coordinates>
          20.6903446,53.6397716,0
        </coordinates>
      </Point>
    </Placemark>
    <Placemark>
      <name>Łuknajno Lake</name>
      <styleUrl>#icon-1899-FF5252-nodesc</styleUrl>
      <Point>
        <coordinates>
          21.6234316,53.8167533,0
        </coordinates>
      </Point>
    </Placemark>
    <Placemark>
      <name>Seven Island Lake Nature Reserve</name>
      <styleUrl>#icon-1899-FF5252-nodesc</styleUrl>
      <Point>
        <coordinates>
          21.5744877,54.298145,0
        </coordinates>
      </Point>
    </Placemark>
    <Placemark>
      <name>Puszcza Jodłowa</name>
      <styleUrl>#icon-1899-FF5252-nodesc</styleUrl>
      <Point>
        <coordinates>
          20.9666667,50.8833333,0
        </coordinates>
      </Point>
    </Placemark>
    <Placemark>
      <name>Kadzielnia Nature Reserve</name>
      <styleUrl>#icon-1899-FF5252-nodesc</styleUrl>
      <Point>
        <coordinates>
          20.6175306,50.8611411,0
        </coordinates>
      </Point>
    </Placemark>
    <Placemark>
      <name>Jezioro Kaliszańskie</name>
      <styleUrl>#icon-1899-FF5252-nodesc</styleUrl>
      <Point>
        <coordinates>
          17.1241715,52.8835945,0
        </coordinates>
      </Point>
    </Placemark>
    <Placemark>
      <name>Potok Kamienicki</name>
      <styleUrl>#icon-1899-FF5252-nodesc</styleUrl>
      <Point>
        <coordinates>
          20.2150843,49.5628523,0
        </coordinates>
      </Point>
    </Placemark>
    <Placemark>
      <name>Kamienie Brodzińskiego | rezerwat przyrody</name>
      <styleUrl>#icon-1899-FF5252-nodesc</styleUrl>
      <Point>
        <coordinates>
          20.4787128,49.8482527,0
        </coordinates>
      </Point>
    </Placemark>
    <Placemark>
      <name>Kamienna</name>
      <styleUrl>#icon-1899-FF5252-nodesc</styleUrl>
      <Point>
        <coordinates>
          21.5258092,50.9966016,0
        </coordinates>
      </Point>
    </Placemark>
    <Placemark>
      <name>Kamieńczyk Waterfall</name>
      <styleUrl>#icon-1899-FF5252-nodesc</styleUrl>
      <Point>
        <coordinates>
          15.496828,50.813646,0
        </coordinates>
      </Point>
    </Placemark>
    <Placemark>
      <name>Kampinoska Vistula Valley</name>
      <styleUrl>#icon-1899-FF5252-nodesc</styleUrl>
      <Point>
        <coordinates>
          20.9457088,52.3144603,0
        </coordinates>
      </Point>
    </Placemark>
    <Placemark>
      <name>Rezerwat Przyrody Kantor Stary</name>
      <styleUrl>#icon-1899-FF5252-nodesc</styleUrl>
      <Point>
        <coordinates>
          22.0947887,52.3625804,0
        </coordinates>
      </Point>
    </Placemark>
    <Placemark>
      <name>Kępa Redłowska</name>
      <styleUrl>#icon-1899-FF5252-nodesc</styleUrl>
      <Point>
        <coordinates>
          18.5605047,54.4922652,0
        </coordinates>
      </Point>
    </Placemark>
    <Placemark>
      <name>Kojle</name>
      <styleUrl>#icon-1899-FF5252-nodesc</styleUrl>
      <Point>
        <coordinates>
          22.891667,54.275833,0
        </coordinates>
      </Point>
    </Placemark>
    <Placemark>
      <name>Jezioro Perty</name>
      <styleUrl>#icon-1899-FF5252-nodesc</styleUrl>
      <Point>
        <coordinates>
          22.8982458,54.2744235,0
        </coordinates>
      </Point>
    </Placemark>
    <Placemark>
      <name>Klify w Dębinie</name>
      <styleUrl>#icon-1899-FF5252-nodesc</styleUrl>
      <Point>
        <coordinates>
          17.0098403,54.6430769,0
        </coordinates>
      </Point>
    </Placemark>
    <Placemark>
      <name>Klif w Świętouściu</name>
      <styleUrl>#icon-1899-FF5252-nodesc</styleUrl>
      <Point>
        <coordinates>
          14.6330706,53.9959139,0
        </coordinates>
      </Point>
    </Placemark>
    <Placemark>
      <name>Jezioro Klimkowskie</name>
      <styleUrl>#icon-1899-FF5252-nodesc</styleUrl>
      <Point>
        <coordinates>
          21.1000293,49.5416676,0
        </coordinates>
      </Point>
    </Placemark>
    <Placemark>
      <name>Nature reserve Kłodne on the Dunajec</name>
      <styleUrl>#icon-1899-FF5252-nodesc</styleUrl>
      <Point>
        <coordinates>
          20.4380035,49.4732833,0
        </coordinates>
      </Point>
    </Placemark>
    <Placemark>
      <name>Dolina Kobylańska</name>
      <styleUrl>#icon-1899-FF5252-nodesc</styleUrl>
      <Point>
        <coordinates>
          19.7641094,50.1612932,0
        </coordinates>
      </Point>
    </Placemark>
    <Placemark>
      <name>Kolorowe Jeziorka</name>
      <styleUrl>#icon-1899-FF5252-nodesc</styleUrl>
      <Point>
        <coordinates>
          15.9734129,50.8299217,0
        </coordinates>
      </Point>
    </Placemark>
    <Placemark>
      <name>Horsehead Rocks</name>
      <styleUrl>#icon-1899-FF5252-nodesc</styleUrl>
      <Point>
        <coordinates>
          15.5126014,50.7965875,0
        </coordinates>
      </Point>
    </Placemark>
    <Placemark>
      <name>Kopysno</name>
      <styleUrl>#icon-1899-FF5252-nodesc</styleUrl>
      <Point>
        <coordinates>
          22.6406347,49.6845182,0
        </coordinates>
      </Point>
    </Placemark>
    <Placemark>
      <name><![CDATA[Rezerwat przyrody "Kornuty"]]></name>
      <styleUrl>#icon-1899-FF5252-nodesc</styleUrl>
      <Point>
        <coordinates>
          21.3298532,49.5867972,0
        </coordinates>
      </Point>
    </Placemark>
    <Placemark>
      <name>Wąwóz Korzeniowy Dół</name>
      <styleUrl>#icon-1899-FF5252-nodesc</styleUrl>
      <Point>
        <coordinates>
          21.9787348,51.3196469,0
        </coordinates>
      </Point>
    </Placemark>
    <Placemark>
      <name>Drewniana kładka na Kostrzyniu</name>
      <styleUrl>#icon-1899-FF5252-nodesc</styleUrl>
      <Point>
        <coordinates>
          22.0233167,52.287538,0
        </coordinates>
      </Point>
    </Placemark>
    <Placemark>
      <name>Kościeliska Valley</name>
      <styleUrl>#icon-1899-FF5252-nodesc</styleUrl>
      <Point>
        <coordinates>
          19.8666667,49.25,0
        </coordinates>
      </Point>
    </Placemark>
    <Placemark>
      <name>Żaki</name>
      <styleUrl>#icon-1899-FF5252-nodesc</styleUrl>
      <Point>
        <coordinates>
          19.3480314,50.0424109,0
        </coordinates>
      </Point>
    </Placemark>
    <Placemark>
      <name>Skała Dudnik</name>
      <styleUrl>#icon-1899-FF5252-nodesc</styleUrl>
      <Point>
        <coordinates>
          19.5212118,50.5701797,0
        </coordinates>
      </Point>
    </Placemark>
    <Placemark>
      <name><![CDATA[Rezerwat przyrody "Dąbrowa Smoszew"]]></name>
      <styleUrl>#icon-1899-FF5252-nodesc</styleUrl>
      <Point>
        <coordinates>
          17.5036189,51.6545983,0
        </coordinates>
      </Point>
    </Placemark>
    <Placemark>
      <name>Głaz Królewski</name>
      <styleUrl>#icon-1899-FF5252-nodesc</styleUrl>
      <Point>
        <coordinates>
          14.7215572,53.9801414,0
        </coordinates>
      </Point>
    </Placemark>
    <Placemark>
      <name>Schronisko PTTK Na Hali Krupowej</name>
      <styleUrl>#icon-1899-FF5252-nodesc</styleUrl>
      <Point>
        <coordinates>
          19.6447253,49.6263248,0
        </coordinates>
      </Point>
    </Placemark>
    <Placemark>
      <name><![CDATA[Rezerwat przyrody "Krutynia Dolna"]]></name>
      <styleUrl>#icon-1899-FF5252-nodesc</styleUrl>
      <Point>
        <coordinates>
          21.5232236,53.7166766,0
        </coordinates>
      </Point>
    </Placemark>
    <Placemark>
      <name>Obszar Ochrony Ścisłej „Krzywa Góra”</name>
      <styleUrl>#icon-1899-FF5252-nodesc</styleUrl>
      <Point>
        <coordinates>
          20.4461371,52.3335927,0
        </coordinates>
      </Point>
    </Placemark>
    <Placemark>
      <name>Rezerwat przyrody Kuriańskie Bagno</name>
      <styleUrl>#icon-1899-FF5252-nodesc</styleUrl>
      <Point>
        <coordinates>
          23.3060664,53.8135877,0
        </coordinates>
      </Point>
    </Placemark>
    <Placemark>
      <name>Rezerwat przyrody Las Warmiński im. prof. Benona Polakowskiego</name>
      <styleUrl>#icon-1899-FF5252-nodesc</styleUrl>
      <Point>
        <coordinates>
          20.5103173,53.6364172,0
        </coordinates>
      </Point>
    </Placemark>
    <Placemark>
      <name><![CDATA[Rezerwat "Lipowy Jar"]]></name>
      <styleUrl>#icon-1899-FF5252-nodesc</styleUrl>
      <Point>
        <coordinates>
          22.1429797,54.1241776,0
        </coordinates>
      </Point>
    </Placemark>
    <Placemark>
      <name>Lipówka Naturę Reserve</name>
      <styleUrl>#icon-1899-FF5252-nodesc</styleUrl>
      <Point>
        <coordinates>
          20.3719888,50.0885656,0
        </coordinates>
      </Point>
    </Placemark>
    <Placemark>
      <name>Most linowy</name>
      <styleUrl>#icon-1899-FF5252-nodesc</styleUrl>
      <Point>
        <coordinates>
          21.7895891,52.4765116,0
        </coordinates>
      </Point>
    </Placemark>
    <Placemark>
      <name>Rezerwat przyrody Lubsza</name>
      <styleUrl>#icon-1899-FF5252-nodesc</styleUrl>
      <Point>
        <coordinates>
          17.5699711,50.9305757,0
        </coordinates>
      </Point>
    </Placemark>
    <Placemark>
      <name>Rezerwat przyrody Łąck</name>
      <styleUrl>#icon-1899-FF5252-nodesc</styleUrl>
      <Point>
        <coordinates>
          19.6082504,52.4908089,0
        </coordinates>
      </Point>
    </Placemark>
    <Placemark>
      <name>Wieża widokowa</name>
      <styleUrl>#icon-1899-FF5252-nodesc</styleUrl>
      <Point>
        <coordinates>
          20.4514256,52.2831773,0
        </coordinates>
      </Point>
    </Placemark>
    <Placemark>
      <name>Łebsko Lake</name>
      <styleUrl>#icon-1899-FF5252-nodesc</styleUrl>
      <Point>
        <coordinates>
          17.3963639,54.7145694,0
        </coordinates>
      </Point>
    </Placemark>
    <Placemark>
      <name>Ujście rzeki Jezierzyca</name>
      <styleUrl>#icon-1899-FF5252-nodesc</styleUrl>
      <Point>
        <coordinates>
          16.4579732,51.4951467,0
        </coordinates>
      </Point>
    </Placemark>
    <Placemark>
      <name>Łękawica</name>
      <styleUrl>#icon-1899-FF5252-nodesc</styleUrl>
      <Point>
        <coordinates>
          21.3193736,51.7131186,0
        </coordinates>
      </Point>
    </Placemark>
    <Placemark>
      <name>Narożnik 851 m n.p.m.</name>
      <styleUrl>#icon-1899-FF5252-nodesc</styleUrl>
      <Point>
        <coordinates>
          16.3473257,50.4593097,0
        </coordinates>
      </Point>
    </Placemark>
    <Placemark>
      <name>Dolina Łobżonki</name>
      <styleUrl>#icon-1899-FF5252-nodesc</styleUrl>
      <Point>
        <coordinates>
          17.2802828,53.3028505,0
        </coordinates>
      </Point>
    </Placemark>
    <Placemark>
      <name>Łokietek Cave</name>
      <styleUrl>#icon-1899-FF5252-nodesc</styleUrl>
      <Point>
        <coordinates>
          19.8179365,50.2018497,0
        </coordinates>
      </Point>
    </Placemark>
    <Placemark>
      <name>Łysica</name>
      <styleUrl>#icon-1899-FF5252-nodesc</styleUrl>
      <Point>
        <coordinates>
          20.8967847,50.8916037,0
        </coordinates>
      </Point>
    </Placemark>
    <Placemark>
      <name>Maczuga Herkulesa</name>
      <styleUrl>#icon-1899-FF5252-nodesc</styleUrl>
      <Point>
        <coordinates>
          19.7829619,50.2429068,0
        </coordinates>
      </Point>
    </Placemark>
    <Placemark>
      <name>Majcz Wielki</name>
      <styleUrl>#icon-1899-FF5252-nodesc</styleUrl>
      <Point>
        <coordinates>
          21.4544444,53.7788889,0
        </coordinates>
      </Point>
    </Placemark>
    <Placemark>
      <name>Majerz</name>
      <styleUrl>#icon-1899-FF5252-nodesc</styleUrl>
      <Point>
        <coordinates>
          20.3430844,49.4336285,0
        </coordinates>
      </Point>
    </Placemark>
    <Placemark>
      <name>Basin of the Small Pond</name>
      <styleUrl>#icon-1899-FF5252-nodesc</styleUrl>
      <Point>
        <coordinates>
          15.6956924,50.7491306,0
        </coordinates>
      </Point>
    </Placemark>
    <Placemark>
      <name>Smulsk</name>
      <styleUrl>#icon-1899-FF5252-nodesc</styleUrl>
      <Point>
        <coordinates>
          17.255782,53.4077741,0
        </coordinates>
      </Point>
    </Placemark>
    <Placemark>
      <name>Marszałek</name>
      <styleUrl>#icon-1899-FF5252-nodesc</styleUrl>
      <Point>
        <coordinates>
          20.4022688,49.4659246,0
        </coordinates>
      </Point>
    </Placemark>
    <Placemark>
      <name><![CDATA[Rezerwat Przyrody "Bobruczek"]]></name>
      <styleUrl>#icon-1899-FF5252-nodesc</styleUrl>
      <Point>
        <coordinates>
          23.1616232,54.2068255,0
        </coordinates>
      </Point>
    </Placemark>
    <Placemark>
      <name>Rezerwat Ostoja Bobrów Marycha</name>
      <styleUrl>#icon-1899-FF5252-nodesc</styleUrl>
      <Point>
        <coordinates>
          23.2362865,54.1472678,0
        </coordinates>
      </Point>
    </Placemark>
    <Placemark>
      <name>Rezerwat Kukle</name>
      <styleUrl>#icon-1899-FF5252-nodesc</styleUrl>
      <Point>
        <coordinates>
          23.4939044,54.0232495,0
        </coordinates>
      </Point>
    </Placemark>
    <Placemark>
      <name>Morasko Meteorite Nature Reserve</name>
      <styleUrl>#icon-1899-FF5252-nodesc</styleUrl>
      <Point>
        <coordinates>
          16.896038,52.4900898,0
        </coordinates>
      </Point>
    </Placemark>
    <Placemark>
      <name>Hala Mędralowa</name>
      <styleUrl>#icon-1899-FF5252-nodesc</styleUrl>
      <Point>
        <coordinates>
          19.462878,49.6136477,0
        </coordinates>
      </Point>
    </Placemark>
    <Placemark>
      <name>Jezioro Wielkie , Miały</name>
      <styleUrl>#icon-1899-FF5252-nodesc</styleUrl>
      <Point>
        <coordinates>
          16.1888479,52.8094774,0
        </coordinates>
      </Point>
    </Placemark>
    <Placemark>
      <name>Rezerwat przyrody Michnówka</name>
      <styleUrl>#icon-1899-FF5252-nodesc</styleUrl>
      <Point>
        <coordinates>
          23.641078,52.6507654,0
        </coordinates>
      </Point>
    </Placemark>
    <Placemark>
      <name>Rezerwat przyrody Mingos</name>
      <styleUrl>#icon-1899-FF5252-nodesc</styleUrl>
      <Point>
        <coordinates>
          21.6309106,53.3183387,0
        </coordinates>
      </Point>
    </Placemark>
    <Placemark>
      <name>Rezerwat przyrody Minokąt</name>
      <styleUrl>#icon-1899-FF5252-nodesc</styleUrl>
      <Point>
        <coordinates>
          23.3704627,50.3793822,0
        </coordinates>
      </Point>
    </Placemark>
    <Placemark>
      <name>Lasy Skaliskie</name>
      <styleUrl>#icon-1899-FF5252-nodesc</styleUrl>
      <Point>
        <coordinates>
          21.95,54.2833333,0
        </coordinates>
      </Point>
    </Placemark>
    <Placemark>
      <name>Rezerwat Przyrody Mszar nad jeziorem Mnich</name>
      <styleUrl>#icon-1899-FF5252-nodesc</styleUrl>
      <Point>
        <coordinates>
          16.0311497,52.6518185,0
        </coordinates>
      </Point>
    </Placemark>
    <Placemark>
      <name>Góra Chełmowa</name>
      <styleUrl>#icon-1899-FF5252-nodesc</styleUrl>
      <Point>
        <coordinates>
          21.1082701,50.8849413,0
        </coordinates>
      </Point>
    </Placemark>
    <Placemark>
      <name>Rezerwat przyrody Modrzewina</name>
      <styleUrl>#icon-1899-FF5252-nodesc</styleUrl>
      <Point>
        <coordinates>
          20.774418,51.8400213,0
        </coordinates>
      </Point>
    </Placemark>
    <Placemark>
      <name>Mogielnica</name>
      <styleUrl>#icon-1899-FF5252-nodesc</styleUrl>
      <Point>
        <coordinates>
          16.4111538,52.4025043,0
        </coordinates>
      </Point>
    </Placemark>
    <Placemark>
      <name>Morskie Oko</name>
      <styleUrl>#icon-1899-FF5252-nodesc</styleUrl>
      <Point>
        <coordinates>
          20.070087,49.1971411,0
        </coordinates>
      </Point>
    </Placemark>
    <Placemark>
      <name>Jezioro Moszne</name>
      <styleUrl>#icon-1899-FF5252-nodesc</styleUrl>
      <Point>
        <coordinates>
          23.1208333,51.4580556,0
        </coordinates>
      </Point>
    </Placemark>
    <Placemark>
      <name>Dolina Noteci</name>
      <styleUrl>#icon-1899-FF5252-nodesc</styleUrl>
      <Point>
        <coordinates>
          17.250059,53.0832742,0
        </coordinates>
      </Point>
    </Placemark>
    <Placemark>
      <name>rzeka Noteć</name>
      <styleUrl>#icon-1899-FF5252-nodesc</styleUrl>
      <Point>
        <coordinates>
          17.1247735,53.0736182,0
        </coordinates>
      </Point>
    </Placemark>
    <Placemark>
      <name>Polica</name>
      <styleUrl>#icon-1899-FF5252-nodesc</styleUrl>
      <Point>
        <coordinates>
          19.6194444,49.6236111,0
        </coordinates>
      </Point>
    </Placemark>
    <Placemark>
      <name>Wieża Widokowa</name>
      <styleUrl>#icon-1899-FF5252-nodesc</styleUrl>
      <Point>
        <coordinates>
          22.8189517,53.0769263,0
        </coordinates>
      </Point>
    </Placemark>
    <Placemark>
      <name>Jezioro Narie</name>
      <styleUrl>#icon-1899-FF5252-nodesc</styleUrl>
      <Point>
        <coordinates>
          20.0339719,53.9087853,0
        </coordinates>
      </Point>
    </Placemark>
    <Placemark>
      <name>Nasiczne</name>
      <styleUrl>#icon-1899-FF5252-nodesc</styleUrl>
      <Point>
        <coordinates>
          22.6017629,49.1780114,0
        </coordinates>
      </Point>
    </Placemark>
    <Placemark>
      <name>Niebieskie Źródła Nature Reserve</name>
      <styleUrl>#icon-1899-FF5252-nodesc</styleUrl>
      <Point>
        <coordinates>
          20.0296936,51.5140933,0
        </coordinates>
      </Point>
    </Placemark>
    <Placemark>
      <name>Rezerwat przyrody Nietlickie Bagno</name>
      <styleUrl>#icon-1899-FF5252-nodesc</styleUrl>
      <Point>
        <coordinates>
          21.8279566,53.8859345,0
        </coordinates>
      </Point>
    </Placemark>
    <Placemark>
      <name>Miedzyrzecki Fortified Region</name>
      <styleUrl>#icon-1899-FF5252-nodesc</styleUrl>
      <Point>
        <coordinates>
          15.5058239,52.371933,0
        </coordinates>
      </Point>
    </Placemark>
    <Placemark>
      <name>Jaskinia Nietoperzowa</name>
      <styleUrl>#icon-1899-FF5252-nodesc</styleUrl>
      <Point>
        <coordinates>
          19.774458,50.1939184,0
        </coordinates>
      </Point>
    </Placemark>
    <Placemark>
      <name>Nieznajowa</name>
      <styleUrl>#icon-1899-FF5252-nodesc</styleUrl>
      <Point>
        <coordinates>
          21.3965328,49.4934132,0
        </coordinates>
      </Point>
    </Placemark>
    <Placemark>
      <name>Oberwanka</name>
      <styleUrl>#icon-1899-FF5252-nodesc</styleUrl>
      <Point>
        <coordinates>
          20.2370129,51.9740486,0
        </coordinates>
      </Point>
    </Placemark>
    <Placemark>
      <name>Olczyska Polana</name>
      <styleUrl>#icon-1899-FF5252-nodesc</styleUrl>
      <Point>
        <coordinates>
          20.0005687,49.267381,0
        </coordinates>
      </Point>
    </Placemark>
    <Placemark>
      <name>Rezerwat Przyrody Olszyny Rumockie</name>
      <styleUrl>#icon-1899-FF5252-nodesc</styleUrl>
      <Point>
        <coordinates>
          20.2307641,53.0699202,0
        </coordinates>
      </Point>
    </Placemark>
    <Placemark>
      <name>Drewniana kładka na rzece Omulew</name>
      <styleUrl>#icon-1899-FF5252-nodesc</styleUrl>
      <Point>
        <coordinates>
          21.0572767,53.3319832,0
        </coordinates>
      </Point>
    </Placemark>
    <Placemark>
      <name>Most nad rzeką Omulew. Nowa Wieś Zarębska.</name>
      <styleUrl>#icon-1899-FF5252-nodesc</styleUrl>
      <Point>
        <coordinates>
          21.1613793,53.2905143,0
        </coordinates>
      </Point>
    </Placemark>
    <Placemark>
      <name>Puścizna Wielka</name>
      <styleUrl>#icon-1899-FF5252-nodesc</styleUrl>
      <Point>
        <coordinates>
          19.7783169,49.4430991,0
        </coordinates>
      </Point>
    </Placemark>
    <Placemark>
      <name>Rezerwat Ostoja Bobrów na rzece Pasłęce</name>
      <styleUrl>#icon-1899-FF5252-nodesc</styleUrl>
      <Point>
        <coordinates>
          20.1377981,53.8099619,0
        </coordinates>
      </Point>
    </Placemark>
    <Placemark>
      <name>Punkt widokowy</name>
      <styleUrl>#icon-1899-FF5252-nodesc</styleUrl>
      <Point>
        <coordinates>
          22.6744253,49.28572,0
        </coordinates>
      </Point>
    </Placemark>
    <Placemark>
      <name>Ostrzyca</name>
      <styleUrl>#icon-1899-FF5252-nodesc</styleUrl>
      <Point>
        <coordinates>
          15.7632936,51.0559807,0
        </coordinates>
      </Point>
    </Placemark>
    <Placemark>
      <name>Jezioro Ostrzyckie</name>
      <styleUrl>#icon-1899-FF5252-nodesc</styleUrl>
      <Point>
        <coordinates>
          18.1003892,54.2531909,0
        </coordinates>
      </Point>
    </Placemark>
    <Placemark>
      <name>Paciorki</name>
      <styleUrl>#icon-1899-FF5252-nodesc</styleUrl>
      <Point>
        <coordinates>
          15.5868738,50.7943374,0
        </coordinates>
      </Point>
    </Placemark>
    <Placemark>
      <name>Modrzejowianka</name>
      <styleUrl>#icon-1899-FF5252-nodesc</styleUrl>
      <Point>
        <coordinates>
          21.1312806,51.2451792,0
        </coordinates>
      </Point>
    </Placemark>
    <Placemark>
      <name>Rezerwat przyrody Parkowe</name>
      <styleUrl>#icon-1899-FF5252-nodesc</styleUrl>
      <Point>
        <coordinates>
          19.4265838,50.6896045,0
        </coordinates>
      </Point>
    </Placemark>
    <Placemark>
      <name>Szlak rowerowy</name>
      <styleUrl>#icon-1899-FF5252-nodesc</styleUrl>
      <Point>
        <coordinates>
          16.4295642,53.7871178,0
        </coordinates>
      </Point>
    </Placemark>
    <Placemark>
      <name>Perć akademików</name>
      <styleUrl>#icon-1899-FF5252-nodesc</styleUrl>
      <Point>
        <coordinates>
          19.5236721,49.583374,0
        </coordinates>
      </Point>
    </Placemark>
    <Placemark>
      <name><![CDATA[Nature trail "Perehod"]]></name>
      <styleUrl>#icon-1899-FF5252-nodesc</styleUrl>
      <Point>
        <coordinates>
          23.1662923,51.488232,0
        </coordinates>
      </Point>
    </Placemark>
    <Placemark>
      <name>Jezioro Piecki</name>
      <styleUrl>#icon-1899-FF5252-nodesc</styleUrl>
      <Point>
        <coordinates>
          17.5552033,53.9126666,0
        </coordinates>
      </Point>
    </Placemark>
    <Placemark>
      <name><![CDATA[Rezerwat Przyrody "Piekiełko"]]></name>
      <styleUrl>#icon-1899-FF5252-nodesc</styleUrl>
      <Point>
        <coordinates>
          19.774522,53.331428,0
        </coordinates>
      </Point>
    </Placemark>
    <Placemark>
      <name>Słonecznik</name>
      <styleUrl>#icon-1899-FF5252-nodesc</styleUrl>
      <Point>
        <coordinates>
          15.6833733,50.7597088,0
        </coordinates>
      </Point>
    </Placemark>
    <Placemark>
      <name>Pieniński Park Narodowy</name>
      <styleUrl>#icon-1899-FF5252-nodesc</styleUrl>
      <Point>
        <coordinates>
          20.3863415,49.4191992,0
        </coordinates>
      </Point>
    </Placemark>
    <Placemark>
      <name>Jezioro Skok</name>
      <styleUrl>#icon-1899-FF5252-nodesc</styleUrl>
      <Point>
        <coordinates>
          21.4987667,53.7399049,0
        </coordinates>
      </Point>
    </Placemark>
    <Placemark>
      <name>Dolina Pięciu Stawów Polskich</name>
      <styleUrl>#icon-1899-FF5252-nodesc</styleUrl>
      <Point>
        <coordinates>
          20.0407202,49.2094418,0
        </coordinates>
      </Point>
    </Placemark>
    <Placemark>
      <name>Punkt Widokowy</name>
      <styleUrl>#icon-1899-FF5252-nodesc</styleUrl>
      <Point>
        <coordinates>
          16.4918505,53.5088334,0
        </coordinates>
      </Point>
    </Placemark>
    <Placemark>
      <name><![CDATA["Małpi" Most Wiszący Nad Pilicą]]></name>
      <styleUrl>#icon-1899-FF5252-nodesc</styleUrl>
      <Point>
        <coordinates>
          19.8927842,51.2513572,0
        </coordinates>
      </Point>
    </Placemark>
    <Placemark>
      <name>Pilsko</name>
      <styleUrl>#icon-1899-FF5252-nodesc</styleUrl>
      <Point>
        <coordinates>
          19.3168056,49.5279505,0
        </coordinates>
      </Point>
    </Placemark>
    <Placemark>
      <name>Taras Widokowy</name>
      <styleUrl>#icon-1899-FF5252-nodesc</styleUrl>
      <Point>
        <coordinates>
          21.8396415,53.5542145,0
        </coordinates>
      </Point>
    </Placemark>
    <Placemark>
      <name>Polany Surowiczne</name>
      <styleUrl>#icon-1899-FF5252-nodesc</styleUrl>
      <Point>
        <coordinates>
          21.880556,49.450278,0
        </coordinates>
      </Point>
    </Placemark>
    <Placemark>
      <name>Rezerwat przyrody Wrzosowiska w Okonku</name>
      <styleUrl>#icon-1899-FF5252-nodesc</styleUrl>
      <Point>
        <coordinates>
          16.793237,53.546823,0
        </coordinates>
      </Point>
    </Placemark>
    <Placemark>
      <name>Żegiestów-Zdrój</name>
      <styleUrl>#icon-1899-FF5252-nodesc</styleUrl>
      <Point>
        <coordinates>
          20.803338,49.3630436,0
        </coordinates>
      </Point>
    </Placemark>
    <Placemark>
      <name>Kraków Gate</name>
      <styleUrl>#icon-1899-FF5252-nodesc</styleUrl>
      <Point>
        <coordinates>
          19.8291407,50.1959339,0
        </coordinates>
      </Point>
    </Placemark>
    <Placemark>
      <name>Przehyba 1151 m n.p.m.</name>
      <styleUrl>#icon-1899-FF5252-nodesc</styleUrl>
      <Point>
        <coordinates>
          20.5544609,49.4675892,0
        </coordinates>
      </Point>
    </Placemark>
    <Placemark>
      <name>Park Krajobrazowy Promno</name>
      <styleUrl>#icon-1899-FF5252-nodesc</styleUrl>
      <Point>
        <coordinates>
          17.2550868,52.4555299,0
        </coordinates>
      </Point>
    </Placemark>
    <Placemark>
      <name>Rezerwat przyrody Prządki</name>
      <styleUrl>#icon-1899-FF5252-nodesc</styleUrl>
      <Point>
        <coordinates>
          21.8006717,49.7422971,0
        </coordinates>
      </Point>
    </Placemark>
    <Placemark>
      <name>Przełom Białki</name>
      <styleUrl>#icon-1899-FF5252-nodesc</styleUrl>
      <Point>
        <coordinates>
          20.1286483,49.4290493,0
        </coordinates>
      </Point>
    </Placemark>
    <Placemark>
      <name>Rezerwat przyrody Przełom Jasiołki</name>
      <styleUrl>#icon-1899-FF5252-nodesc</styleUrl>
      <Point>
        <coordinates>
          21.752758,49.4545121,0
        </coordinates>
      </Point>
    </Placemark>
    <Placemark>
      <name>Polana Przysłop Dolny</name>
      <styleUrl>#icon-1899-FF5252-nodesc</styleUrl>
      <Point>
        <coordinates>
          20.2166837,49.5499694,0
        </coordinates>
      </Point>
    </Placemark>
    <Placemark>
      <name>Lasy Pszczyńskie</name>
      <styleUrl>#icon-1899-FF5252-nodesc</styleUrl>
      <Point>
        <coordinates>
          18.9936285,50.0391295,0
        </coordinates>
      </Point>
    </Placemark>
    <Placemark>
      <name>Rezerwat przyrody Puszcza Śnieżnej Białki</name>
      <styleUrl>#icon-1899-FF5252-nodesc</styleUrl>
      <Point>
        <coordinates>
          16.9886719,50.2386225,0
        </coordinates>
      </Point>
    </Placemark>
    <Placemark>
      <name>Brama Kaszubska</name>
      <styleUrl>#icon-1899-FF5252-nodesc</styleUrl>
      <Point>
        <coordinates>
          17.9942577,54.2532339,0
        </coordinates>
      </Point>
    </Placemark>
    <Placemark>
      <name>Jaskinia Raj</name>
      <styleUrl>#icon-1899-FF5252-nodesc</styleUrl>
      <Point>
        <coordinates>
          20.4991312,50.8253388,0
        </coordinates>
      </Point>
    </Placemark>
    <Placemark>
      <name>Rezerwat przyrody Rawka</name>
      <styleUrl>#icon-1899-FF5252-nodesc</styleUrl>
      <Point>
        <coordinates>
          20.2884708,51.8638195,0
        </coordinates>
      </Point>
    </Placemark>
    <Placemark>
      <name>Bagno Jacka</name>
      <styleUrl>#icon-1899-FF5252-nodesc</styleUrl>
      <Point>
        <coordinates>
          21.2164343,52.2573423,0
        </coordinates>
      </Point>
    </Placemark>
    <Placemark>
      <name>Dęby Rogalińskie</name>
      <styleUrl>#icon-1899-FF5252-nodesc</styleUrl>
      <Point>
        <coordinates>
          16.9354228,52.2330811,0
        </coordinates>
      </Point>
    </Placemark>
    <Placemark>
      <name>Rezerwat przyrody Rosiczki Mirosławskie</name>
      <styleUrl>#icon-1899-FF5252-nodesc</styleUrl>
      <Point>
        <coordinates>
          16.1508894,53.3536765,0
        </coordinates>
      </Point>
    </Placemark>
    <Placemark>
      <name>Rosochate</name>
      <styleUrl>#icon-1899-FF5252-nodesc</styleUrl>
      <Point>
        <coordinates>
          22.599458,49.271959,0
        </coordinates>
      </Point>
    </Placemark>
    <Placemark>
      <name>Dolina Rospudy</name>
      <styleUrl>#icon-1899-FF5252-nodesc</styleUrl>
      <Point>
        <coordinates>
          22.9540014,53.894856,0
        </coordinates>
      </Point>
    </Placemark>
    <Placemark>
      <name>Dolina Roztoki</name>
      <styleUrl>#icon-1899-FF5252-nodesc</styleUrl>
      <Point>
        <coordinates>
          20.0812308,49.2288401,0
        </coordinates>
      </Point>
    </Placemark>
    <Placemark>
      <name>Równia pod Śnieżką</name>
      <styleUrl>#icon-1899-FF5252-nodesc</styleUrl>
      <Point>
        <coordinates>
          15.7345442,50.7348183,0
        </coordinates>
      </Point>
    </Placemark>
    <Placemark>
      <name>Rezerwat przyrody Ruda Chlebacz</name>
      <styleUrl>#icon-1899-FF5252-nodesc</styleUrl>
      <Point>
        <coordinates>
          20.2097316,51.9887437,0
        </coordinates>
      </Point>
    </Placemark>
    <Placemark>
      <name>Rezerwat przyrody Dolina Rurzycy</name>
      <styleUrl>#icon-1899-FF5252-nodesc</styleUrl>
      <Point>
        <coordinates>
          16.6616249,53.3161083,0
        </coordinates>
      </Point>
    </Placemark>
    <Placemark>
      <name>Rusinowa Polana</name>
      <styleUrl>#icon-1899-FF5252-nodesc</styleUrl>
      <Point>
        <coordinates>
          20.0895038,49.2607771,0
        </coordinates>
      </Point>
    </Placemark>
    <Placemark>
      <name>Rezerwat Przyrody Rutka</name>
      <styleUrl>#icon-1899-FF5252-nodesc</styleUrl>
      <Point>
        <coordinates>
          22.8442138,54.2209041,0
        </coordinates>
      </Point>
    </Placemark>
    <Placemark>
      <name>Hala Rysianka</name>
      <styleUrl>#icon-1899-FF5252-nodesc</styleUrl>
      <Point>
        <coordinates>
          19.2348431,49.5363504,0
        </coordinates>
      </Point>
    </Placemark>
    <Placemark>
      <name>Jezioro Rzecińskie</name>
      <styleUrl>#icon-1899-FF5252-nodesc</styleUrl>
      <Point>
        <coordinates>
          16.3167764,52.762494,0
        </coordinates>
      </Point>
    </Placemark>
    <Placemark>
      <name>Rzepiska-Łapszanka</name>
      <styleUrl>#icon-1899-FF5252-nodesc</styleUrl>
      <Point>
        <coordinates>
          20.1808622,49.3546545,0
        </coordinates>
      </Point>
    </Placemark>
    <Placemark>
      <name>Skały Rzędkowickie</name>
      <styleUrl>#icon-1899-FF5252-nodesc</styleUrl>
      <Point>
        <coordinates>
          19.4904736,50.5729578,0
        </coordinates>
      </Point>
    </Placemark>
    <Placemark>
      <name>Pasmo Otrytu</name>
      <styleUrl>#icon-1899-FF5252-nodesc</styleUrl>
      <Point>
        <coordinates>
          22.6524229,49.2403197,0
        </coordinates>
      </Point>
    </Placemark>
    <Placemark>
      <name>Rezerwat przyrody Sicienko</name>
      <styleUrl>#icon-1899-FF5252-nodesc</styleUrl>
      <Point>
        <coordinates>
          16.0261345,53.1815299,0
        </coordinates>
      </Point>
    </Placemark>
    <Placemark>
      <name>Siemianowka reservoir</name>
      <styleUrl>#icon-1899-FF5252-nodesc</styleUrl>
      <Point>
        <coordinates>
          23.8103256,52.9229029,0
        </coordinates>
      </Point>
    </Placemark>
    <Placemark>
      <name>Cichowąż</name>
      <styleUrl>#icon-1899-FF5252-nodesc</styleUrl>
      <Point>
        <coordinates>
          20.7803799,52.3316466,0
        </coordinates>
      </Point>
    </Placemark>
    <Placemark>
      <name>Siklawica Waterfall</name>
      <styleUrl>#icon-1899-FF5252-nodesc</styleUrl>
      <Point>
        <coordinates>
          19.9302071,49.2594431,0
        </coordinates>
      </Point>
    </Placemark>
    <Placemark>
      <name>Reserve Sine Wiry</name>
      <styleUrl>#icon-1899-FF5252-nodesc</styleUrl>
      <Point>
        <coordinates>
          22.4288771,49.2574595,0
        </coordinates>
      </Point>
    </Placemark>
    <Placemark>
      <name>Skalne Grzyby w PN Gór Stołowych</name>
      <styleUrl>#icon-1899-FF5252-nodesc</styleUrl>
      <Point>
        <coordinates>
          16.4133985,50.4628964,0
        </coordinates>
      </Point>
    </Placemark>
    <Placemark>
      <name>Skamieniałe Miasto Rezerwat Przyrody Nieożywionej</name>
      <styleUrl>#icon-1899-FF5252-nodesc</styleUrl>
      <Point>
        <coordinates>
          20.9640911,49.7768191,0
        </coordinates>
      </Point>
    </Placemark>
    <Placemark>
      <name>Rezerwat Skarpa Dobużańska</name>
      <styleUrl>#icon-1899-FF5252-nodesc</styleUrl>
      <Point>
        <coordinates>
          23.7175075,50.5807145,0
        </coordinates>
      </Point>
    </Placemark>
    <Placemark>
      <name><![CDATA[Rezerwat Ptaków "Skarpa Mołożewska"]]></name>
      <styleUrl>#icon-1899-FF5252-nodesc</styleUrl>
      <Point>
        <coordinates>
          22.5283043,52.4615758,0
        </coordinates>
      </Point>
    </Placemark>
    <Placemark>
      <name><![CDATA[Ścieżka przyrodnicza "Ptasim Szlakiem" - Betonka]]></name>
      <styleUrl>#icon-1899-FF5252-nodesc</styleUrl>
      <Point>
        <coordinates>
          14.774515,52.5844736,0
        </coordinates>
      </Point>
    </Placemark>
    <Placemark>
      <name>Kładka pieszo - rowerowa</name>
      <styleUrl>#icon-1899-FF5252-nodesc</styleUrl>
      <Point>
        <coordinates>
          17.6102947,54.2470402,0
        </coordinates>
      </Point>
    </Placemark>
    <Placemark>
      <name>Smreczyński Staw</name>
      <styleUrl>#icon-1899-FF5252-nodesc</styleUrl>
      <Point>
        <coordinates>
          19.8638281,49.2221864,0
        </coordinates>
      </Point>
    </Placemark>
    <Placemark>
      <name>Krzyżna Góra</name>
      <styleUrl>#icon-1899-FF5252-nodesc</styleUrl>
      <Point>
        <coordinates>
          15.8682382,50.8641731,0
        </coordinates>
      </Point>
    </Placemark>
    <Placemark>
      <name>Sokolica</name>
      <styleUrl>#icon-1899-FF5252-nodesc</styleUrl>
      <Point>
        <coordinates>
          20.4404662,49.4178492,0
        </coordinates>
      </Point>
    </Placemark>
    <Placemark>
      <name>Lake Solina</name>
      <styleUrl>#icon-1899-FF5252-nodesc</styleUrl>
      <Point>
        <coordinates>
          22.4549418,49.3689308,0
        </coordinates>
      </Point>
    </Placemark>
    <Placemark>
      <name>Rezerwat Przyrody Sosny Taborskie</name>
      <styleUrl>#icon-1899-FF5252-nodesc</styleUrl>
      <Point>
        <coordinates>
          20.0266344,53.7772469,0
        </coordinates>
      </Point>
    </Placemark>
    <Placemark>
      <name>Rezerwat przyrody Sośnica</name>
      <styleUrl>#icon-1899-FF5252-nodesc</styleUrl>
      <Point>
        <coordinates>
          16.2064219,53.4153384,0
        </coordinates>
      </Point>
    </Placemark>
    <Placemark>
      <name>Stawy Kiszkowskie</name>
      <styleUrl>#icon-1899-FF5252-nodesc</styleUrl>
      <Point>
        <coordinates>
          17.2781787,52.5943474,0
        </coordinates>
      </Point>
    </Placemark>
    <Placemark>
      <name>Milicz Ponds</name>
      <styleUrl>#icon-1899-FF5252-nodesc</styleUrl>
      <Point>
        <coordinates>
          17.109514,51.503869,0
        </coordinates>
      </Point>
    </Placemark>
    <Placemark>
      <name>Jezioro Ostrowite</name>
      <styleUrl>#icon-1899-FF5252-nodesc</styleUrl>
      <Point>
        <coordinates>
          17.6005636,53.808067,0
        </coordinates>
      </Point>
    </Placemark>
    <Placemark>
      <name>Jezioro Suchary</name>
      <styleUrl>#icon-1899-FF5252-nodesc</styleUrl>
      <Point>
        <coordinates>
          23.0161672,54.0877572,0
        </coordinates>
      </Point>
    </Placemark>
    <Placemark>
      <name>Sudawskie</name>
      <styleUrl>#icon-1899-FF5252-nodesc</styleUrl>
      <Point>
        <coordinates>
          22.9158569,54.3859467,0
        </coordinates>
      </Point>
    </Placemark>
    <Placemark>
      <name>Supraśl</name>
      <styleUrl>#icon-1899-FF5252-nodesc</styleUrl>
      <Point>
        <coordinates>
          23.3624923,53.2024381,0
        </coordinates>
      </Point>
    </Placemark>
    <Placemark>
      <name>Susiec Observation Tower</name>
      <styleUrl>#icon-1899-FF5252-nodesc</styleUrl>
      <Point>
        <coordinates>
          23.2138055,50.4236091,0
        </coordinates>
      </Point>
    </Placemark>
    <Placemark>
      <name>Dolina Rzeki Swędrni</name>
      <styleUrl>#icon-1899-FF5252-nodesc</styleUrl>
      <Point>
        <coordinates>
          18.2575136,51.8121325,0
        </coordinates>
      </Point>
    </Placemark>
    <Placemark>
      <name>Nature reserve Szachownica</name>
      <styleUrl>#icon-1899-FF5252-nodesc</styleUrl>
      <Point>
        <coordinates>
          18.805762,51.054848,0
        </coordinates>
      </Point>
    </Placemark>
    <Placemark>
      <name>Szczeliniec Wielki</name>
      <styleUrl>#icon-1899-FF5252-nodesc</styleUrl>
      <Point>
        <coordinates>
          16.343397,50.4841175,0
        </coordinates>
      </Point>
    </Placemark>
    <Placemark>
      <name>Szeszupa</name>
      <styleUrl>#icon-1899-FF5252-nodesc</styleUrl>
      <Point>
        <coordinates>
          23.0005448,54.3327168,0
        </coordinates>
      </Point>
    </Placemark>
    <Placemark>
      <name>Szklarki Waterfall</name>
      <styleUrl>#icon-1899-FF5252-nodesc</styleUrl>
      <Point>
        <coordinates>
          15.5557031,50.8299404,0
        </coordinates>
      </Point>
    </Placemark>
    <Placemark>
      <name><![CDATA[Rezerwat "Szklarnia"]]></name>
      <styleUrl>#icon-1899-FF5252-nodesc</styleUrl>
      <Point>
        <coordinates>
          22.4118071,50.6524048,0
        </coordinates>
      </Point>
    </Placemark>
    <Placemark>
      <name>Szrenica Mountain Hostel</name>
      <styleUrl>#icon-1899-FF5252-nodesc</styleUrl>
      <Point>
        <coordinates>
          15.5136736,50.7920107,0
        </coordinates>
      </Point>
    </Placemark>
    <Placemark>
      <name>The V-1 Flying Bomb Adits</name>
      <styleUrl>#icon-1899-FF5252-nodesc</styleUrl>
      <Point>
        <coordinates>
          15.2749947,51.0173353,0
        </coordinates>
      </Point>
    </Placemark>
    <Placemark>
      <name>Rezerwat przyrody Nad Tanwią</name>
      <styleUrl>#icon-1899-FF5252-nodesc</styleUrl>
      <Point>
        <coordinates>
          23.1959347,50.3943516,0
        </coordinates>
      </Point>
    </Placemark>
    <Placemark>
      <name>Jezioro Szurpiły</name>
      <styleUrl>#icon-1899-FF5252-nodesc</styleUrl>
      <Point>
        <coordinates>
          22.892654,54.2279879,0
        </coordinates>
      </Point>
    </Placemark>
    <Placemark>
      <name>Rezerwat Szwajcaria Podlaska</name>
      <styleUrl>#icon-1899-FF5252-nodesc</styleUrl>
      <Point>
        <coordinates>
          23.5129714,52.1350037,0
        </coordinates>
      </Point>
    </Placemark>
    <Placemark>
      <name>Śniardwy</name>
      <styleUrl>#icon-1899-FF5252-nodesc</styleUrl>
      <Point>
        <coordinates>
          21.7301095,53.7566681,0
        </coordinates>
      </Point>
    </Placemark>
    <Placemark>
      <name>Sněžka</name>
      <styleUrl>#icon-1899-FF5252-nodesc</styleUrl>
      <Point>
        <coordinates>
          15.7399457,50.7360171,0
        </coordinates>
      </Point>
    </Placemark>
    <Placemark>
      <name>Śnieżne Kotły</name>
      <styleUrl>#icon-1899-FF5252-nodesc</styleUrl>
      <Point>
        <coordinates>
          15.5579422,50.7779649,0
        </coordinates>
      </Point>
    </Placemark>
    <Placemark>
      <name>Nature reserve Śnieżnik Kłodzki</name>
      <styleUrl>#icon-1899-FF5252-nodesc</styleUrl>
      <Point>
        <coordinates>
          16.8489913,50.2118153,0
        </coordinates>
      </Point>
    </Placemark>
    <Placemark>
      <name>Rezerwat przyrody Śrubita</name>
      <styleUrl>#icon-1899-FF5252-nodesc</styleUrl>
      <Point>
        <coordinates>
          19.0126706,49.4044231,0
        </coordinates>
      </Point>
    </Placemark>
    <Placemark>
      <name>Rezerwat Przyrody Świder</name>
      <styleUrl>#icon-1899-FF5252-nodesc</styleUrl>
      <Point>
        <coordinates>
          21.3791038,52.1293893,0
        </coordinates>
      </Point>
    </Placemark>
    <Placemark>
      <name>Nature reserve Świdwie</name>
      <styleUrl>#icon-1899-FF5252-nodesc</styleUrl>
      <Point>
        <coordinates>
          14.361062,53.5620302,0
        </coordinates>
      </Point>
    </Placemark>
    <Placemark>
      <name>Gubałówka</name>
      <styleUrl>#icon-1899-FF5252-nodesc</styleUrl>
      <Point>
        <coordinates>
          19.9370173,49.3074272,0
        </coordinates>
      </Point>
    </Placemark>
    <Placemark>
      <name>Świna</name>
      <styleUrl>#icon-1899-FF5252-nodesc</styleUrl>
      <Point>
        <coordinates>
          14.2837226,53.8690476,0
        </coordinates>
      </Point>
    </Placemark>
    <Placemark>
      <name>Leśniczówka Grzędy</name>
      <styleUrl>#icon-1899-FF5252-nodesc</styleUrl>
      <Point>
        <coordinates>
          22.7742376,53.6315879,0
        </coordinates>
      </Point>
    </Placemark>
    <Placemark>
      <name>Rezerwat przyrody Tobolinka</name>
      <styleUrl>#icon-1899-FF5252-nodesc</styleUrl>
      <Point>
        <coordinates>
          23.4055319,54.0276666,0
        </coordinates>
      </Point>
    </Placemark>
    <Placemark>
      <name>Rezerwat przyrody Torfowiska Doliny Izery</name>
      <styleUrl>#icon-1899-FF5252-nodesc</styleUrl>
      <Point>
        <coordinates>
          15.3515482,50.8523823,0
        </coordinates>
      </Point>
    </Placemark>
    <Placemark>
      <name>Torfowisko Karaska wieża obserwacyjna</name>
      <styleUrl>#icon-1899-FF5252-nodesc</styleUrl>
      <Point>
        <coordinates>
          21.3577568,53.2767629,0
        </coordinates>
      </Point>
    </Placemark>
    <Placemark>
      <name>Torfowisko pod Zieleńcem</name>
      <styleUrl>#icon-1899-FF5252-nodesc</styleUrl>
      <Point>
        <coordinates>
          16.4108853,50.3479298,0
        </coordinates>
      </Point>
    </Placemark>
    <Placemark>
      <name>Allozaur</name>
      <styleUrl>#icon-1899-FF5252-nodesc</styleUrl>
      <Point>
        <coordinates>
          21.5485219,51.0146159,0
        </coordinates>
      </Point>
    </Placemark>
    <Placemark>
      <name>Triglav - boulder</name>
      <styleUrl>#icon-1899-FF5252-nodesc</styleUrl>
      <Point>
        <coordinates>
          16.2607634,53.931528,0
        </coordinates>
      </Point>
    </Placemark>
    <Placemark>
      <name><![CDATA[Obszar ochrony ścisłej "Trzcielińskie bagno"]]></name>
      <styleUrl>#icon-1899-FF5252-nodesc</styleUrl>
      <Point>
        <coordinates>
          16.6648151,52.3081767,0
        </coordinates>
      </Point>
    </Placemark>
    <Placemark>
      <name>Jezioro Ciecz</name>
      <styleUrl>#icon-1899-FF5252-nodesc</styleUrl>
      <Point>
        <coordinates>
          15.2961187,52.3514216,0
        </coordinates>
      </Point>
    </Placemark>
    <Placemark>
      <name>Trzy Korony</name>
      <styleUrl>#icon-1899-FF5252-nodesc</styleUrl>
      <Point>
        <coordinates>
          20.4139656,49.4139991,0
        </coordinates>
      </Point>
    </Placemark>
    <Placemark>
      <name>Jezioro Turkusowe</name>
      <styleUrl>#icon-1899-FF5252-nodesc</styleUrl>
      <Point>
        <coordinates>
          14.4393555,53.8774325,0
        </coordinates>
      </Point>
    </Placemark>
    <Placemark>
      <name>Turnica</name>
      <styleUrl>#icon-1899-FF5252-nodesc</styleUrl>
      <Point>
        <coordinates>
          22.6300764,49.5967204,0
        </coordinates>
      </Point>
    </Placemark>
    <Placemark>
      <name>Tworylne</name>
      <styleUrl>#icon-1899-FF5252-nodesc</styleUrl>
      <Point>
        <coordinates>
          22.4782781,49.2694379,0
        </coordinates>
      </Point>
    </Placemark>
    <Placemark>
      <name><![CDATA["Domek nad Dunajcem" Teresa Liptak]]></name>
      <styleUrl>#icon-1899-FF5252-nodesc</styleUrl>
      <Point>
        <coordinates>
          20.4057806,49.4972264,0
        </coordinates>
      </Point>
    </Placemark>
    <Placemark>
      <name>Tyśmienica</name>
      <styleUrl>#icon-1899-FF5252-nodesc</styleUrl>
      <Point>
        <coordinates>
          22.7315136,51.6560727,0
        </coordinates>
      </Point>
    </Placemark>
    <Placemark>
      <name>Rezerwat Miedwiediczka - Uhryń</name>
      <styleUrl>#icon-1899-FF5252-nodesc</styleUrl>
      <Point>
        <coordinates>
          20.8598056,49.4581467,0
        </coordinates>
      </Point>
    </Placemark>
    <Placemark>
      <name>Karsiborska Kępa</name>
      <styleUrl>#icon-1899-FF5252-nodesc</styleUrl>
      <Point>
        <coordinates>
          14.3308815,53.8637437,0
        </coordinates>
      </Point>
    </Placemark>
    <Placemark>
      <name>Wałsza</name>
      <styleUrl>#icon-1899-FF5252-nodesc</styleUrl>
      <Point>
        <coordinates>
          20.2028349,54.2433738,0
        </coordinates>
      </Point>
    </Placemark>
    <Placemark>
      <name>Wąwóz Bolechowicki</name>
      <styleUrl>#icon-1899-FF5252-nodesc</styleUrl>
      <Point>
        <coordinates>
          19.783889,50.156111,0
        </coordinates>
      </Point>
    </Placemark>
    <Placemark>
      <name>Wąwóz Homole</name>
      <styleUrl>#icon-1899-FF5252-nodesc</styleUrl>
      <Point>
        <coordinates>
          20.5473354,49.4055524,0
        </coordinates>
      </Point>
    </Placemark>
    <Placemark>
      <name>Wąwóz Kraków</name>
      <styleUrl>#icon-1899-FF5252-nodesc</styleUrl>
      <Point>
        <coordinates>
          19.8667594,49.2380508,0
        </coordinates>
      </Point>
    </Placemark>
    <Placemark>
      <name>Rzeka Wda (rezerwat Krzywe Koło)</name>
      <styleUrl>#icon-1899-FF5252-nodesc</styleUrl>
      <Point>
        <coordinates>
          18.3605047,53.7165489,0
        </coordinates>
      </Point>
    </Placemark>
    <Placemark>
      <name>Wdzydze Lake</name>
      <styleUrl>#icon-1899-FF5252-nodesc</styleUrl>
      <Point>
        <coordinates>
          17.9139376,53.9904081,0
        </coordinates>
      </Point>
    </Placemark>
    <Placemark>
      <name>Połonina Wetlińska</name>
      <styleUrl>#icon-1899-FF5252-nodesc</styleUrl>
      <Point>
        <coordinates>
          22.5277777,49.1680555,0
        </coordinates>
      </Point>
    </Placemark>
    <Placemark>
      <name>Punkt widokowy Ołownik</name>
      <styleUrl>#icon-1899-FF5252-nodesc</styleUrl>
      <Point>
        <coordinates>
          21.8264823,54.3053615,0
        </coordinates>
      </Point>
    </Placemark>
    <Placemark>
      <name>Dolina Wiaru w Trójcy</name>
      <styleUrl>#icon-1899-FF5252-nodesc</styleUrl>
      <Point>
        <coordinates>
          22.5583123,49.6613457,0
        </coordinates>
      </Point>
    </Placemark>
    <Placemark>
      <name>Wiatrołuża</name>
      <styleUrl>#icon-1899-FF5252-nodesc</styleUrl>
      <Point>
        <coordinates>
          23.0750178,54.1106713,0
        </coordinates>
      </Point>
    </Placemark>
    <Placemark>
      <name>Wielki Dział</name>
      <styleUrl>#icon-1899-FF5252-nodesc</styleUrl>
      <Point>
        <coordinates>
          23.3877778,50.2869444,0
        </coordinates>
      </Point>
    </Placemark>
    <Placemark>
      <name>Kopieniec Wielki</name>
      <styleUrl>#icon-1899-FF5252-nodesc</styleUrl>
      <Point>
        <coordinates>
          20.016197,49.2716391,0
        </coordinates>
      </Point>
    </Placemark>
    <Placemark>
      <name>Wieża widokowa w Siekowie</name>
      <styleUrl>#icon-1899-FF5252-nodesc</styleUrl>
      <Point>
        <coordinates>
          16.3738628,52.0579793,0
        </coordinates>
      </Point>
    </Placemark>
    <Placemark>
      <name>Rezerwat przyrody Wielkopole</name>
      <styleUrl>#icon-1899-FF5252-nodesc</styleUrl>
      <Point>
        <coordinates>
          19.854939,51.210066,0
        </coordinates>
      </Point>
    </Placemark>
    <Placemark>
      <name>Przystanek Rowerowy</name>
      <styleUrl>#icon-1899-FF5252-nodesc</styleUrl>
      <Point>
        <coordinates>
          22.906115,51.2718859,0
        </coordinates>
      </Point>
    </Placemark>
    <Placemark>
      <name>Wieżyca</name>
      <styleUrl>#icon-1899-FF5252-nodesc</styleUrl>
      <Point>
        <coordinates>
          18.1236111,54.2236111,0
        </coordinates>
      </Point>
    </Placemark>
    <Placemark>
      <name>Wieża widokowa w Kruszniku</name>
      <styleUrl>#icon-1899-FF5252-nodesc</styleUrl>
      <Point>
        <coordinates>
          23.0981148,54.0094388,0
        </coordinates>
      </Point>
    </Placemark>
    <Placemark>
      <name>Rezerwat Wodospad Wilczki</name>
      <styleUrl>#icon-1899-FF5252-nodesc</styleUrl>
      <Point>
        <coordinates>
          16.7606494,50.2291214,0
        </coordinates>
      </Point>
    </Placemark>
    <Placemark>
      <name>Hill of Three Crosses</name>
      <styleUrl>#icon-1899-FF5252-nodesc</styleUrl>
      <Point>
        <coordinates>
          21.9505924,51.3219866,0
        </coordinates>
      </Point>
    </Placemark>
    <Placemark>
      <name>Kępeczki punkt widokowy</name>
      <styleUrl>#icon-1899-FF5252-nodesc</styleUrl>
      <Point>
        <coordinates>
          21.6490357,51.5886025,0
        </coordinates>
      </Point>
    </Placemark>
    <Placemark>
      <name>Zalew w Krempnej</name>
      <styleUrl>#icon-1899-FF5252-nodesc</styleUrl>
      <Point>
        <coordinates>
          21.4925907,49.5050899,0
        </coordinates>
      </Point>
    </Placemark>
    <Placemark>
      <name>Wernejówka</name>
      <styleUrl>#icon-1899-FF5252-nodesc</styleUrl>
      <Point>
        <coordinates>
          21.905278,49.471944,0
        </coordinates>
      </Point>
    </Placemark>
    <Placemark>
      <name>Jezioro Stubnica</name>
      <styleUrl>#icon-1899-FF5252-nodesc</styleUrl>
      <Point>
        <coordinates>
          15.5488472,53.4134399,0
        </coordinates>
      </Point>
    </Placemark>
    <Placemark>
      <name>Skarpa na Księżej Górze</name>
      <styleUrl>#icon-1899-FF5252-nodesc</styleUrl>
      <Point>
        <coordinates>
          20.742798,52.4667922,0
        </coordinates>
      </Point>
    </Placemark>
    <Placemark>
      <name>Wodogrzmoty Mickiewicza</name>
      <styleUrl>#icon-1899-FF5252-nodesc</styleUrl>
      <Point>
        <coordinates>
          20.0870407,49.2342006,0
        </coordinates>
      </Point>
    </Placemark>
    <Placemark>
      <name>Wołkuszanka</name>
      <styleUrl>#icon-1899-FF5252-nodesc</styleUrl>
      <Point>
        <coordinates>
          23.5243022,53.8118421,0
        </coordinates>
      </Point>
    </Placemark>
    <Placemark>
      <name>Torfowisko</name>
      <styleUrl>#icon-1899-FF5252-nodesc</styleUrl>
      <Point>
        <coordinates>
          22.6586664,49.0799452,0
        </coordinates>
      </Point>
    </Placemark>
    <Placemark>
      <name>Wieża widokowa w Chłopiatynie</name>
      <styleUrl>#icon-1899-FF5252-nodesc</styleUrl>
      <Point>
        <coordinates>
          23.9781513,50.4448593,0
        </coordinates>
      </Point>
    </Placemark>
    <Placemark>
      <name>Lucynowsko-Mostowieckie dunes</name>
      <styleUrl>#icon-1899-FF5252-nodesc</styleUrl>
      <Point>
        <coordinates>
          21.4510658,52.5291289,0
        </coordinates>
      </Point>
    </Placemark>
    <Placemark>
      <name>Wydma Czołpińska</name>
      <styleUrl>#icon-1899-FF5252-nodesc</styleUrl>
      <Point>
        <coordinates>
          17.2625222,54.7262588,0
        </coordinates>
      </Point>
    </Placemark>
    <Placemark>
      <name>Wysoki Kamień</name>
      <styleUrl>#icon-1899-FF5252-nodesc</styleUrl>
      <Point>
        <coordinates>
          15.4920101,50.845473,0
        </coordinates>
      </Point>
    </Placemark>
    <Placemark>
      <name>Rezerwat Wyspa Konwaliowa</name>
      <styleUrl>#icon-1899-FF5252-nodesc</styleUrl>
      <Point>
        <coordinates>
          16.2499056,51.9821365,0
        </coordinates>
      </Point>
    </Placemark>
    <Placemark>
      <name>Rezerwat przyrody Zabór</name>
      <styleUrl>#icon-1899-FF5252-nodesc</styleUrl>
      <Point>
        <coordinates>
          16.7142177,51.2048265,0
        </coordinates>
      </Point>
    </Placemark>
    <Placemark>
      <name>Zagożdżon</name>
      <styleUrl>#icon-1899-FF5252-nodesc</styleUrl>
      <Point>
        <coordinates>
          21.4355433,51.5309004,0
        </coordinates>
      </Point>
    </Placemark>
    <Placemark>
      <name>Zosin</name>
      <styleUrl>#icon-1899-FF5252-nodesc</styleUrl>
      <Point>
        <coordinates>
          24.1,50.85,0
        </coordinates>
      </Point>
    </Placemark>
    <Placemark>
      <name>Zakręt</name>
      <styleUrl>#icon-1899-FF5252-nodesc</styleUrl>
      <Point>
        <coordinates>
          21.4118979,53.6873986,0
        </coordinates>
      </Point>
    </Placemark>
    <Placemark>
      <name>Valley of the Monk</name>
      <styleUrl>#icon-1899-FF5252-nodesc</styleUrl>
      <Point>
        <coordinates>
          20.0496559,49.1948452,0
        </coordinates>
      </Point>
    </Placemark>
    <Placemark>
      <name>Przełęcz Zawrat (2159 m n.p.m.)</name>
      <styleUrl>#icon-1899-FF5252-nodesc</styleUrl>
      <Point>
        <coordinates>
          20.0165346,49.2191599,0
        </coordinates>
      </Point>
    </Placemark>
    <Placemark>
      <name>Jezioro Zelwa</name>
      <styleUrl>#icon-1899-FF5252-nodesc</styleUrl>
      <Point>
        <coordinates>
          23.4232914,54.0222495,0
        </coordinates>
      </Point>
    </Placemark>
    <Placemark>
      <name>Rezerwat na Jeziorze Zgierzynieckim im. Bolesława Papi</name>
      <styleUrl>#icon-1899-FF5252-nodesc</styleUrl>
      <Point>
        <coordinates>
          16.2614856,52.4475324,0
        </coordinates>
      </Point>
    </Placemark>
    <Placemark>
      <name>Zielonka Forest Landscape Park</name>
      <styleUrl>#icon-1899-FF5252-nodesc</styleUrl>
      <Point>
        <coordinates>
          17.108631,52.551107,0
        </coordinates>
      </Point>
    </Placemark>
    <Placemark>
      <name>Źródliskowa Buczyna Nature Reserve in memory of Jerzy Jackowski</name>
      <styleUrl>#icon-1899-FF5252-nodesc</styleUrl>
      <Point>
        <coordinates>
          14.7125817,53.2914891,0
        </coordinates>
      </Point>
    </Placemark>
    <Placemark>
      <name>Źródła Rzeki Łyny</name>
      <styleUrl>#icon-1899-FF5252-nodesc</styleUrl>
      <Point>
        <coordinates>
          20.4272622,53.4488442,0
        </coordinates>
      </Point>
    </Placemark>
    <Placemark>
      <name>Źródła Zygmunta i Elżbiety</name>
      <styleUrl>#icon-1899-FF5252-nodesc</styleUrl>
      <Point>
        <coordinates>
          19.4122963,50.6887736,0
        </coordinates>
      </Point>
    </Placemark>
    <Placemark>
      <name>Źródła Królewskie</name>
      <styleUrl>#icon-1899-FF5252-nodesc</styleUrl>
      <Point>
        <coordinates>
          21.5256127,51.5233014,0
        </coordinates>
      </Point>
    </Placemark>
    <Placemark>
      <name>Rezerwat przyrody Żółwiowe Błota</name>
      <styleUrl>#icon-1899-FF5252-nodesc</styleUrl>
      <Point>
        <coordinates>
          23.5448923,51.4405346,0
        </coordinates>
      </Point>
    </Placemark>
    <Placemark>
      <name>Krajobraz Żuław</name>
      <styleUrl>#icon-1899-FF5252-nodesc</styleUrl>
      <Point>
        <coordinates>
          18.9306995,54.2387439,0
        </coordinates>
      </Point>
    </Placemark>
    <Placemark>
      <name>Żydowskie</name>
      <styleUrl>#icon-1899-FF5252-nodesc</styleUrl>
      <Point>
        <coordinates>
          21.4839404,49.4670854,0
        </coordinates>
      </Point>
    </Placemark>
  </Document>
</kml>
